[{"location":[28.6138954,77.2090057],"business":"restaurant_caterers","name":"producer1","phone":"1111111111"},{"location":[27.1752554,78.0098161],"business":"restaurant_caterers","name":"producer2","phone":"2222222222"},{"location":[26.9154576,75.8189817],"business":"juice_factory","name":"producer3","phone":"3333333333"},{"location":[19.0785451,72.878176],"business":"juice_factory","name":"producer4","phone":"4444444444"},{"location":[18.521428,73.8544541],"business":"farmers_agriculture","name":"producer5","phone":"5555555555"},{"location":[20.0112475,73.7902364],"business":"restaurant_caterers","name":"producer6","phone":"6666666666"},{"location":[12.9767936,77.590082],"business":"juice_factory","name":"producer7","phone":"7777777777"},{"location":[12.7328844,77.8309478],"business":"restaurant_caterers","name":"producer8","phone":"8888888888"},{"location":[12.3051828,76.6553609],"business":"farmers_agriculture","name":"producer9","phone":"9999999999"},{"location":[11.4126769,76.7030504],"business":"restaurant_caterers","name":"producer10","phone":"1000000000"},{"location":[13.0836939,80.270186],"business":"juice_factory","name":"producer11","phone":"1100000000"},{"location":[12.8796051,79.7042762],"business":"farmers_agriculture","name":"producer12","phone":"1200000000"},{"location":[11.9340568,79.8306447],"business":"juice_factory","name":"producer13","phone":"1300000000"},{"location":[8.4882267,76.947551],"business":"farmers_agriculture","name":"producer14","phone":"1400000000"},{"location":[9.3181018,76.3809006],"business":"juice_factory","name":"producer15","phone":"1500000000"}]